{
  "meta": {
    "source": "OSM (operator=Vejdirektoratet) + TRM/Vejdirektoratet 2018 + FDM/Infrastrukturplan 2035 (nov 2025)",
    "updated": "2026-06-07",
    "count_active": 22,
    "count_planned": 44,
    "locations_active": 12,
    "locations_planned": 19,
    "notes": "20 faste ATK-standere (stærekasser) på 11 lokationer siden 2018. Infrastrukturplan 2035: 30 nye landevejskameraer + 10 støjstærekasser på motorveje = 60 ialt. Opsætning begynder 2027. Planlagte lokationer har approksimate koordinater (midtpunkt af strækning) - eksakt placering ikke offentliggjort. SCDB cross-validation 2026-06-07: alle 20 eksisterende ATK koordinater bekræftet + 2 nye kameraer på Nordjyske Motorvej, Aalborg (SCDB #203666/#203667, A+)."
  },
  "cameras": [
    {
      "id": "atk-01a",
      "name": "Stenløsevej, Måløv",
      "road": "Stenløsevej",
      "municipality": "Ballerup",
      "lat": 55.7445932,
      "lng": 12.3296798,
      "maxspeed": 70,
      "direction": 145,
      "source": "OSM node 5948339474, operator=Vejdirektoratet, start_date=2018-10-02"
    },
    {
      "id": "atk-01b",
      "name": "Stenløsevej, Måløv (modsat retning)",
      "road": "Stenløsevej",
      "municipality": "Ballerup",
      "lat": 55.7455344,
      "lng": 12.3261599,
      "maxspeed": 70,
      "direction": null,
      "source": "OSM node 5948353766, operator=Vejdirektoratet, start_date=2018-10-02"
    },
    {
      "id": "atk-02a",
      "name": "ATK Stander, Glostrup/Albertslund-området",
      "road": "ukendt",
      "municipality": "Glostrup",
      "lat": 55.6629054,
      "lng": 12.3592999,
      "maxspeed": 70,
      "direction": 250,
      "source": "OSM node 6774292460, description=ATK Stander (Stærekasse)"
    },
    {
      "id": "atk-02b",
      "name": "ATK Stander, Glostrup/Albertslund-området (modsat retning)",
      "road": "ukendt",
      "municipality": "Glostrup",
      "lat": 55.6634985,
      "lng": 12.3652987,
      "maxspeed": 70,
      "direction": 60,
      "source": "OSM node 6774292461, description=ATK Stander (Stærekasse)"
    },
    {
      "id": "atk-03a",
      "name": "Slagelse-området",
      "road": "ukendt",
      "municipality": "Slagelse",
      "lat": 55.3688499,
      "lng": 11.4163211,
      "maxspeed": 80,
      "direction": 110,
      "source": "OSM node 6774288816, operator=Vejdirektoratet"
    },
    {
      "id": "atk-03b",
      "name": "Slagelse-området (modsat retning)",
      "road": "ukendt",
      "municipality": "Slagelse",
      "lat": 55.3712869,
      "lng": 11.4074591,
      "maxspeed": 80,
      "direction": null,
      "source": "OSM node 6774288815"
    },
    {
      "id": "atk-04a",
      "name": "Gaabensvej, Nykøbing Falster",
      "road": "Gaabensvej",
      "municipality": "Guldborgsund",
      "lat": 54.8142347,
      "lng": 11.8696979,
      "maxspeed": 60,
      "direction": 5,
      "source": "OSM node 6774330059, description=ATK Stander (Stærekasse)"
    },
    {
      "id": "atk-05a",
      "name": "Bogensevej, Odense",
      "road": "Bogensevej",
      "municipality": "Odense",
      "lat": 55.4202855,
      "lng": 10.3522798,
      "maxspeed": 50,
      "direction": 320,
      "source": "OSM node 6774226498"
    },
    {
      "id": "atk-05b",
      "name": "Bogensevej, Odense (modsat retning)",
      "road": "Bogensevej",
      "municipality": "Odense",
      "lat": 55.4209662,
      "lng": 10.3495529,
      "maxspeed": 50,
      "direction": 300,
      "source": "OSM node 7687300231"
    },
    {
      "id": "atk-06a",
      "name": "Bramming/Esbjerg-området",
      "road": "ukendt",
      "municipality": "Esbjerg",
      "lat": 55.4666023,
      "lng": 8.519373,
      "maxspeed": 80,
      "direction": 270,
      "source": "OSM node 6774350774"
    },
    {
      "id": "atk-06b",
      "name": "Bramming/Esbjerg-området (modsat retning)",
      "road": "ukendt",
      "municipality": "Esbjerg",
      "lat": 55.4643155,
      "lng": 8.5464875,
      "maxspeed": 80,
      "direction": 110,
      "source": "OSM node 8497567550, operator=Vejdirektoratet"
    },
    {
      "id": "atk-07a",
      "name": "Herning-området",
      "road": "ukendt",
      "municipality": "Herning",
      "lat": 56.0826722,
      "lng": 8.3971602,
      "maxspeed": 80,
      "direction": null,
      "source": "OSM node 6001305059, operator=Vejdirektoratet, start_date=2018-12-03"
    },
    {
      "id": "atk-07b",
      "name": "Herning-området (modsat retning)",
      "road": "ukendt",
      "municipality": "Herning",
      "lat": 56.0825679,
      "lng": 8.3922076,
      "maxspeed": 80,
      "direction": null,
      "source": "OSM node 6001319018, operator=Vejdirektoratet, start_date=2018-12-03"
    },
    {
      "id": "atk-08a",
      "name": "Grenåvej, Risskov (Aarhus)",
      "road": "Grenåvej",
      "municipality": "Aarhus",
      "lat": 56.2002315,
      "lng": 10.2411937,
      "maxspeed": 80,
      "direction": null,
      "source": "OSM node 6774285411"
    },
    {
      "id": "atk-08b",
      "name": "Grenåvej, Risskov (Aarhus) (modsat retning)",
      "road": "Grenåvej",
      "municipality": "Aarhus",
      "lat": 56.2003239,
      "lng": 10.2411252,
      "maxspeed": 80,
      "direction": null,
      "source": "OSM node 6774285412"
    },
    {
      "id": "atk-09a",
      "name": "Vildsundvej km 6.3, Nykøbing Mors",
      "road": "Vildsundvej",
      "municipality": "Morsø",
      "lat": 56.806679,
      "lng": 8.8001575,
      "maxspeed": 70,
      "direction": 145,
      "source": "OSM node 6774274892"
    },
    {
      "id": "atk-09b",
      "name": "Vildsundvej km 6.7, Nykøbing Mors (modsat retning)",
      "road": "Vildsundvej",
      "municipality": "Morsø",
      "lat": 56.8089583,
      "lng": 8.7971561,
      "maxspeed": 70,
      "direction": 330,
      "source": "OSM node 10934032484"
    },
    {
      "id": "atk-10a",
      "name": "Aalborgvej, Aabybro",
      "road": "Aalborgvej",
      "municipality": "Jammerbugt",
      "lat": 57.1431562,
      "lng": 9.760332,
      "maxspeed": 80,
      "direction": null,
      "source": "OSM node 6774324006"
    },
    {
      "id": "atk-10b",
      "name": "Aalborgvej, Aabybro (modsat retning)",
      "road": "Aalborgvej",
      "municipality": "Jammerbugt",
      "lat": 57.1429674,
      "lng": 9.7606558,
      "maxspeed": 80,
      "direction": null,
      "source": "OSM node 6774324007"
    },
    {
      "id": "atk-11a",
      "name": "Nordjylland (Hjørring/Frederikshavn-området)",
      "road": "ukendt",
      "municipality": "Hjørring",
      "lat": 57.4330643,
      "lng": 10.0287024,
      "maxspeed": 70,
      "direction": null,
      "source": "OSM node 6774327940"
    },
    {
      "id": "atk-11b",
      "name": "Nordjylland (Hjørring/Frederikshavn-området, modsat retning)",
      "road": "ukendt",
      "municipality": "Hjørring",
      "lat": 57.4243807,
      "lng": 10.0416715,
      "maxspeed": 80,
      "direction": null,
      "source": "OSM node 6774331891"
    },
    {
      "id": "atk-12a",
      "name": "Nordjyske Motorvej, Aalborg (sydgående)",
      "road": "Nordjyske Motorvej",
      "municipality": "Aalborg",
      "lat": 57.059071,
      "lng": 9.953137,
      "maxspeed": 130,
      "direction": null,
      "source": "SCDB #203666 (A+, status confirmed), cross-validated 2026-06-07"
    },
    {
      "id": "atk-12b",
      "name": "Nordjyske Motorvej, Aalborg (nordgående)",
      "road": "Nordjyske Motorvej",
      "municipality": "Aalborg",
      "lat": 57.053387,
      "lng": 9.964587,
      "maxspeed": 130,
      "direction": null,
      "source": "SCDB #203667 (A+, status confirmed), cross-validated 2026-06-07"
    },
    {
      "id": "plan-01a",
      "name": "Bramming - Varde (planlagt 2027)",
      "road": "Rute 11",
      "municipality": "Esbjerg/Varde",
      "lat": 55.54,
      "lng": 8.59,
      "maxspeed": 80,
      "direction": null,
      "status": "planlagt",
      "source": "FDM/Infrastrukturplan 2035, nov 2025 - approksimativ placering"
    },
    {
      "id": "plan-01b",
      "name": "Bramming - Varde (planlagt 2027, modsat retning)",
      "road": "Rute 11",
      "municipality": "Esbjerg/Varde",
      "lat": 55.542,
      "lng": 8.592,
      "maxspeed": 80,
      "direction": null,
      "status": "planlagt",
      "source": "FDM/Infrastrukturplan 2035, nov 2025 - approksimativ placering"
    },
    {
      "id": "plan-02a",
      "name": "Bramming - Ribe (planlagt 2027)",
      "road": "Rute 24",
      "municipality": "Esbjerg",
      "lat": 55.42,
      "lng": 8.73,
      "maxspeed": 80,
      "direction": null,
      "status": "planlagt",
      "source": "FDM/Infrastrukturplan 2035, nov 2025 - approksimativ placering"
    },
    {
      "id": "plan-02b",
      "name": "Bramming - Ribe (planlagt 2027, modsat retning)",
      "road": "Rute 24",
      "municipality": "Esbjerg",
      "lat": 55.422,
      "lng": 8.732,
      "maxspeed": 80,
      "direction": null,
      "status": "planlagt",
      "source": "FDM/Infrastrukturplan 2035, nov 2025 - approksimativ placering"
    },
    {
      "id": "plan-03a",
      "name": "Thisted - Fjerritslev (planlagt 2027)",
      "road": "Rute 11/557",
      "municipality": "Thisted/Jammerbugt",
      "lat": 57.08,
      "lng": 8.97,
      "maxspeed": 80,
      "direction": null,
      "status": "planlagt",
      "source": "FDM/Infrastrukturplan 2035, nov 2025 - approksimativ placering"
    },
    {
      "id": "plan-03b",
      "name": "Thisted - Fjerritslev (planlagt 2027, modsat retning)",
      "road": "Rute 11/557",
      "municipality": "Thisted/Jammerbugt",
      "lat": 57.082,
      "lng": 8.972,
      "maxspeed": 80,
      "direction": null,
      "status": "planlagt",
      "source": "FDM/Infrastrukturplan 2035, nov 2025 - approksimativ placering"
    },
    {
      "id": "plan-04a",
      "name": "Aabybro - Fjerritslev (planlagt 2027)",
      "road": "Rute 11",
      "municipality": "Jammerbugt",
      "lat": 57.12,
      "lng": 9.5,
      "maxspeed": 80,
      "direction": null,
      "status": "planlagt",
      "source": "FDM/Infrastrukturplan 2035, nov 2025 - approksimativ placering"
    },
    {
      "id": "plan-04b",
      "name": "Aabybro - Fjerritslev (planlagt 2027, modsat retning)",
      "road": "Rute 11",
      "municipality": "Jammerbugt",
      "lat": 57.122,
      "lng": 9.502,
      "maxspeed": 80,
      "direction": null,
      "status": "planlagt",
      "source": "FDM/Infrastrukturplan 2035, nov 2025 - approksimativ placering"
    },
    {
      "id": "plan-05a",
      "name": "Herning - Varde (planlagt 2027)",
      "road": "Rute 15/11",
      "municipality": "Herning/Ikast-Brande/Billund/Varde",
      "lat": 56.0,
      "lng": 8.76,
      "maxspeed": 80,
      "direction": null,
      "status": "planlagt",
      "source": "FDM/Infrastrukturplan 2035, nov 2025 - approksimativ placering"
    },
    {
      "id": "plan-05b",
      "name": "Herning - Varde (planlagt 2027, modsat retning)",
      "road": "Rute 15/11",
      "municipality": "Herning/Ikast-Brande/Billund/Varde",
      "lat": 56.002,
      "lng": 8.762,
      "maxspeed": 80,
      "direction": null,
      "status": "planlagt",
      "source": "FDM/Infrastrukturplan 2035, nov 2025 - approksimativ placering"
    },
    {
      "id": "plan-06a",
      "name": "Randers - Grenaa (planlagt 2027)",
      "road": "Rute 16",
      "municipality": "Randers/Norddjurs",
      "lat": 56.435,
      "lng": 10.44,
      "maxspeed": 80,
      "direction": null,
      "status": "planlagt",
      "source": "FDM/Infrastrukturplan 2035, nov 2025 - approksimativ placering"
    },
    {
      "id": "plan-06b",
      "name": "Randers - Grenaa (planlagt 2027, modsat retning)",
      "road": "Rute 16",
      "municipality": "Randers/Norddjurs",
      "lat": 56.437,
      "lng": 10.442,
      "maxspeed": 80,
      "direction": null,
      "status": "planlagt",
      "source": "FDM/Infrastrukturplan 2035, nov 2025 - approksimativ placering"
    },
    {
      "id": "plan-07a",
      "name": "Holstebro - Ringkøbing (planlagt 2027)",
      "road": "Rute 15",
      "municipality": "Holstebro/Ringkøbing-Skjern",
      "lat": 56.22,
      "lng": 8.43,
      "maxspeed": 80,
      "direction": null,
      "status": "planlagt",
      "source": "FDM/Infrastrukturplan 2035, nov 2025 - approksimativ placering"
    },
    {
      "id": "plan-07b",
      "name": "Holstebro - Ringkøbing (planlagt 2027, modsat retning)",
      "road": "Rute 15",
      "municipality": "Holstebro/Ringkøbing-Skjern",
      "lat": 56.222,
      "lng": 8.432,
      "maxspeed": 80,
      "direction": null,
      "status": "planlagt",
      "source": "FDM/Infrastrukturplan 2035, nov 2025 - approksimativ placering"
    },
    {
      "id": "plan-08a",
      "name": "Esbjerg - Grindsted (planlagt 2027)",
      "road": "Rute 24",
      "municipality": "Esbjerg/Billund",
      "lat": 55.6,
      "lng": 8.69,
      "maxspeed": 80,
      "direction": null,
      "status": "planlagt",
      "source": "FDM/Infrastrukturplan 2035, nov 2025 - approksimativ placering"
    },
    {
      "id": "plan-08b",
      "name": "Esbjerg - Grindsted (planlagt 2027, modsat retning)",
      "road": "Rute 24",
      "municipality": "Esbjerg/Billund",
      "lat": 55.602,
      "lng": 8.692,
      "maxspeed": 80,
      "direction": null,
      "status": "planlagt",
      "source": "FDM/Infrastrukturplan 2035, nov 2025 - approksimativ placering"
    },
    {
      "id": "plan-09a",
      "name": "Skive - Herning (planlagt 2027)",
      "road": "Rute 26",
      "municipality": "Skive/Viborg/Silkeborg/Herning",
      "lat": 56.35,
      "lng": 9.01,
      "maxspeed": 80,
      "direction": null,
      "status": "planlagt",
      "source": "FDM/Infrastrukturplan 2035, nov 2025 - approksimativ placering"
    },
    {
      "id": "plan-09b",
      "name": "Skive - Herning (planlagt 2027, modsat retning)",
      "road": "Rute 26",
      "municipality": "Skive/Viborg/Silkeborg/Herning",
      "lat": 56.352,
      "lng": 9.012,
      "maxspeed": 80,
      "direction": null,
      "status": "planlagt",
      "source": "FDM/Infrastrukturplan 2035, nov 2025 - approksimativ placering"
    },
    {
      "id": "plan-10a",
      "name": "Odense - Faaborg (planlagt 2027)",
      "road": "Rute 8/43",
      "municipality": "Odense/Faaborg-Midtfyn",
      "lat": 55.26,
      "lng": 10.26,
      "maxspeed": 80,
      "direction": null,
      "status": "planlagt",
      "source": "FDM/Infrastrukturplan 2035, nov 2025 - approksimativ placering"
    },
    {
      "id": "plan-10b",
      "name": "Odense - Faaborg (planlagt 2027, modsat retning)",
      "road": "Rute 8/43",
      "municipality": "Odense/Faaborg-Midtfyn",
      "lat": 55.262,
      "lng": 10.262,
      "maxspeed": 80,
      "direction": null,
      "status": "planlagt",
      "source": "FDM/Infrastrukturplan 2035, nov 2025 - approksimativ placering"
    },
    {
      "id": "plan-11a",
      "name": "Svendborg - Faaborg (planlagt 2027)",
      "road": "Rute 44/8",
      "municipality": "Svendborg/Faaborg-Midtfyn",
      "lat": 55.08,
      "lng": 10.44,
      "maxspeed": 80,
      "direction": null,
      "status": "planlagt",
      "source": "FDM/Infrastrukturplan 2035, nov 2025 - approksimativ placering"
    },
    {
      "id": "plan-11b",
      "name": "Svendborg - Faaborg (planlagt 2027, modsat retning)",
      "road": "Rute 44/8",
      "municipality": "Svendborg/Faaborg-Midtfyn",
      "lat": 55.082,
      "lng": 10.442,
      "maxspeed": 80,
      "direction": null,
      "status": "planlagt",
      "source": "FDM/Infrastrukturplan 2035, nov 2025 - approksimativ placering"
    },
    {
      "id": "plan-12a",
      "name": "Holbæk - Sorø (planlagt 2027)",
      "road": "Rute 57",
      "municipality": "Holbæk/Sorø",
      "lat": 55.57,
      "lng": 11.6,
      "maxspeed": 80,
      "direction": null,
      "status": "planlagt",
      "source": "FDM/Infrastrukturplan 2035, nov 2025 - approksimativ placering"
    },
    {
      "id": "plan-12b",
      "name": "Holbæk - Sorø (planlagt 2027, modsat retning)",
      "road": "Rute 57",
      "municipality": "Holbæk/Sorø",
      "lat": 55.572,
      "lng": 11.602,
      "maxspeed": 80,
      "direction": null,
      "status": "planlagt",
      "source": "FDM/Infrastrukturplan 2035, nov 2025 - approksimativ placering"
    },
    {
      "id": "plan-13a",
      "name": "Frederikssund - Englerup (planlagt 2027)",
      "road": "Rute 53",
      "municipality": "Frederikssund",
      "lat": 55.78,
      "lng": 11.88,
      "maxspeed": 80,
      "direction": null,
      "status": "planlagt",
      "source": "FDM/Infrastrukturplan 2035, nov 2025 - approksimativ placering"
    },
    {
      "id": "plan-13b",
      "name": "Frederikssund - Englerup (planlagt 2027, modsat retning)",
      "road": "Rute 53",
      "municipality": "Frederikssund",
      "lat": 55.782,
      "lng": 11.882,
      "maxspeed": 80,
      "direction": null,
      "status": "planlagt",
      "source": "FDM/Infrastrukturplan 2035, nov 2025 - approksimativ placering"
    },
    {
      "id": "plan-14a",
      "name": "Nexø - Aakirkeby, Bornholm (planlagt 2027)",
      "road": "Rute 38",
      "municipality": "Bornholm",
      "lat": 55.07,
      "lng": 14.97,
      "maxspeed": 80,
      "direction": null,
      "status": "planlagt",
      "source": "FDM/Infrastrukturplan 2035, nov 2025 - approksimativ placering"
    },
    {
      "id": "plan-14b",
      "name": "Nexø - Aakirkeby, Bornholm (planlagt 2027, modsat retning)",
      "road": "Rute 38",
      "municipality": "Bornholm",
      "lat": 55.072,
      "lng": 14.972,
      "maxspeed": 80,
      "direction": null,
      "status": "planlagt",
      "source": "FDM/Infrastrukturplan 2035, nov 2025 - approksimativ placering"
    },
    {
      "id": "motorvej-01a",
      "name": "Støjstærekasse - E20 ved Nyborg (planlagt 2027)",
      "road": "E20",
      "municipality": "Nyborg",
      "lat": 55.31,
      "lng": 10.81,
      "maxspeed": 130,
      "direction": null,
      "status": "planlagt",
      "type": "stoej",
      "source": "FDM/Infrastrukturplan 2035, nov 2025 - approksimativ placering"
    },
    {
      "id": "motorvej-01b",
      "name": "Støjstærekasse - E20 ved Nyborg (planlagt 2027, modsat retning)",
      "road": "E20",
      "municipality": "Nyborg",
      "lat": 55.312,
      "lng": 10.812,
      "maxspeed": 130,
      "direction": null,
      "status": "planlagt",
      "type": "stoej",
      "source": "FDM/Infrastrukturplan 2035, nov 2025 - approksimativ placering"
    },
    {
      "id": "motorvej-02a",
      "name": "Støjstærekasse - Køge Bugt Motorvejen ved Vallensbæk (planlagt 2027)",
      "road": "Køge Bugt Motorvejen",
      "municipality": "Albertslund/Høje-Taastrup",
      "lat": 55.63,
      "lng": 12.29,
      "maxspeed": 110,
      "direction": null,
      "status": "planlagt",
      "type": "stoej",
      "source": "FDM/Infrastrukturplan 2035, nov 2025 - approksimativ placering"
    },
    {
      "id": "motorvej-02b",
      "name": "Støjstærekasse - Køge Bugt Motorvejen ved Vallensbæk (planlagt 2027, modsat retning)",
      "road": "Køge Bugt Motorvejen",
      "municipality": "Albertslund/Høje-Taastrup",
      "lat": 55.632,
      "lng": 12.292,
      "maxspeed": 110,
      "direction": null,
      "status": "planlagt",
      "type": "stoej",
      "source": "FDM/Infrastrukturplan 2035, nov 2025 - approksimativ placering"
    },
    {
      "id": "motorvej-03a",
      "name": "Støjstærekasse - Holbækmotorvejen ved Folehaven (planlagt 2027)",
      "road": "Holbækmotorvejen",
      "municipality": "København/Valby",
      "lat": 55.67,
      "lng": 12.5,
      "maxspeed": 110,
      "direction": null,
      "status": "planlagt",
      "type": "stoej",
      "source": "FDM/Infrastrukturplan 2035, nov 2025 - approksimativ placering"
    },
    {
      "id": "motorvej-03b",
      "name": "Støjstærekasse - Holbækmotorvejen ved Folehaven (planlagt 2027, modsat retning)",
      "road": "Holbækmotorvejen",
      "municipality": "København/Valby",
      "lat": 55.672,
      "lng": 12.502,
      "maxspeed": 110,
      "direction": null,
      "status": "planlagt",
      "type": "stoej",
      "source": "FDM/Infrastrukturplan 2035, nov 2025 - approksimativ placering"
    },
    {
      "id": "motorvej-04a",
      "name": "Støjstærekasse - Vejlefjordbroen (planlagt 2027)",
      "road": "E45",
      "municipality": "Vejle",
      "lat": 55.712,
      "lng": 9.778,
      "maxspeed": 110,
      "direction": null,
      "status": "planlagt",
      "type": "stoej",
      "source": "FDM/Infrastrukturplan 2035, nov 2025 - approksimativ placering"
    },
    {
      "id": "motorvej-04b",
      "name": "Støjstærekasse - Vejlefjordbroen (planlagt 2027, modsat retning)",
      "road": "E45",
      "municipality": "Vejle",
      "lat": 55.714,
      "lng": 9.78,
      "maxspeed": 110,
      "direction": null,
      "status": "planlagt",
      "type": "stoej",
      "source": "FDM/Infrastrukturplan 2035, nov 2025 - approksimativ placering"
    },
    {
      "id": "motorvej-05a",
      "name": "Støjstærekasse - Motorring 3 (planlagt 2027)",
      "road": "Motorring 3",
      "municipality": "Herlev/Gladsaxe",
      "lat": 55.73,
      "lng": 12.4,
      "maxspeed": 110,
      "direction": null,
      "status": "planlagt",
      "type": "stoej",
      "source": "FDM/Infrastrukturplan 2035, nov 2025 - approksimativ placering"
    },
    {
      "id": "motorvej-05b",
      "name": "Støjstærekasse - Motorring 3 (planlagt 2027, modsat retning)",
      "road": "Motorring 3",
      "municipality": "Herlev/Gladsaxe",
      "lat": 55.732,
      "lng": 12.402,
      "maxspeed": 110,
      "direction": null,
      "status": "planlagt",
      "type": "stoej",
      "source": "FDM/Infrastrukturplan 2035, nov 2025 - approksimativ placering"
    }
  ]
}